__time,Calling_Number,Egress_Endpoint_IP,Egress_Route,Egress_Endpoint_Customer_Id,Egress_Endpoint,Egress_Realm,Egress_Reg_Id,Egress_Uport,Call_Duration_,Call_Duration_Fractional,Call_Duration_1,Call_End_Time,Ingress_Call_Error,Egress_Call_Error,Egress_Call_Error_Code,Last_Event_in_Call_Setup,Ingress_Call_Error_Code,Rate_Limit_Error_Code,Call_Hold_Time_,PDD,Call_Release_Source,Ingress_Endpoint_IP,Ingress_Endpoint_Customer_Id,Ingress_Endpoint,Ingress_Sig_Port,Ingress_Realm,Ingress_Reg_Id,Ingress_Uport,Call_Type,Zone,Called_Party_After_Src_Calling_Plan,Called_Party_After_Transit_Route,Called_Party_as_Dialed_by_User,Number_Type_for_Called_Party_as_Dialed_by_User,Called_Party_in_E164_Format,Number_Type_for_Called_Party,Ingress_Trunk_Group,Call_Id,Calling_Party_Number_Type_Received_from_Ingress,Calling_Party_Number_Type_Sent_to_Egress,CDR_Type,Charge_Number,Charge_Number_NoA,Charge_Number_NPI,Cluster_Name,Codec_On_Egress_Leg,Codec_On_Egress_Leg__1st_mline,Codec_On_Ingress_Leg,Codec_On_Ingress_Leg__1st_mline,Custom_Contact_Tag,Bytes_Forwarded_from_Egress_Leg__1st_mline,Bytes_Forwarded_from_Ingress_Leg__1st_mline,Egress_Leg_Number_of_Packets_Dropped_by_Bandwidth_Policing,Called_Party_Media_IP,Called_Party_Media_Port_Number,Egress_Realm_Media_IP,Egress_Realm_Media_Port,Egress_Trunk_Group,Egress_Leg_ptime,Device_Name,Disconnect_Error_Type,Diversion_Info,Egress_Trunk_Group_Context,E911_Call,Egress_Endpoint_Country_Code,Egress_Endpoint_Latitude,Egress_Endpoint_Longitude,Egress_Callid_Termination_Endpoint,Egress_MOS,Egress_Endpoint_Subnet,Egress_Endpoint_Subnet_Mask,Egress_Rate_Limit_Error_Code,CDR_Filename,FromURI_User_Part_in_Ingress_INVITE,Full_Paid_Hdr_in_Ingress_INVITE,Hunt_Attempts,Hunting_Attempts,RequestURI_in_Ingress_INVITE,RSA_IP,Ingress_Endpoint_Country_Code,Ingestion_Time,Ingress_Endpoint_Latitude,Ingress_Endpoint_Longitude,Ingress_MOS,Ingress_Endpoint_Subnet,Ingress_Subnet_Mask,Ingress_ISDN_Cause_Code,Ingress_ISDN_Cause,Egress_Latency,Ingress_Latency,Gateway_Latitude,Ingress_SIP_PAccessNetworkInfo,Ingress_PChargingVector,Egress_SIP_PAccessNetworkInfo,Egress_PChargingVector,Day_in_Local_Time,Day_of_Week_in_Local_Time_,Hour_in_Local_Time,Month_in_Local_Time,Local_Refer_Status,Year_in_Local_Time,Gateway_Longitude,Media_Type,Media_Type__1st_mline,MSW_Name,Calling_Number_after_Calling_Plan,FromURI_User_Part_in_Egress_INVITE,PaidURI_User_Part_in_Egress_INVITE,RequestURI_User_Part_in_Egress_INVITE,Outbound_Call_Limit,Outbound_Call_Limit_Uport,Outbound_Call_Limit_Type,Outbound_Call_Limit_Policy_Name,Organization_Hdr_in_Ingress_INVITE,Egress_ISDN_Cause_Code,Egress_ISDN_Cause,FromURI_in_Egress_INVITE,RequestURI_in_Egress_INVITE,ToURI_in_Egress_INVITE,Egress_Packets_Discarded,Ingress_Packets_Discarded,Egress_Packets_Lost,Ingress_Packets_Lost,Egress_Packets_Received,Ingress_Packets_Received,PaidURI_User_Part_in_Ingress_INVITE,Egress_Jitter,Ingress_Jitter,Peer_Protocol,Privacy,Protocol,ReInvite_Reject_Count,RequestURI_User_Part_in_Ingress_INVITE,Egress_R_Factor,Ingress_R_Factor,Local_Routing_Number,RSA_Latitude,RSA_Longitude,SBC_Version,Final_Negotiated_Answer_Codec,Final_Negotiated_Offer_Codec,SIP_Egress_Response_Code,SIP_Egress_Response_Reason,SIP_Ingress_Response_Code,SIP_Ingress_Response_Reason,Ingress_ptime,Ingress_Iedge_Group,Ingress_Leg_Number_of_Packets_Dropped_by_Bandwidth_Policing,Calling_Party_Media_IP,Calling_Party_Media_Port,Calling_Realm_Media_IP,Calling_Realm_Media_Port,Ingress_Trunk_Group_Context,Start_Time_in_Local_Time,Start_of_Call,Time_Group,Timezone,Transcoder_Id,End_of_Call,Epoch_End_of_Call,User_Timezone,Day_in_UTC,Day_of_week_in_UTC,Hour_in_UTC,Month_in_UTC,Year_in_UTC,Valid_Record,Video_CAC,No_Of_M_Lines,Is_Permitted,Robo_Confidence_Score,CDR_Sequence_Number,Called_Number_Classification,Called_Number_Classification_Flag,Calling_Number_Classification,Calling_Number_Classification_Flag,Unnamed_177,Packet_Loss_greater_001
2021-08-25 00:03:00,89000000000000,54.590.05.60,NULL,nuvia.com,WIWQ_Xvyrow/0,priv_level3,WIWQ_Xvyrow,0,000:01:22,82.27899933,82,00:29:34.3,NULL,NULL,NULL,ack-rx#na,0,NULL,000:00:07,138,source,529.14.536.01,NULL,IQIE_Xvyro/0,5060,trunk2,IQIE_Xvyro,0,IV,1,885000000000,NULL,885000000000,NULL,885000000000,Subscriber,NULL,843988-7009850630-911631@iqie45-w7w46w5.kirferh.gsq,NULL,Subscriber,end1,NULL,NULL,NULL,Q20,unknown,unknown,g711ulaw,g711ulaw,NULL,NULL,656480,5,NULL,536.502.4.6,4002,536.03.680.98,20192,pizip7yo_mrkviww,NULL,Q20_sim,N,NULL,NULL,NULL,NULL,NULL,NULL,NULL,NULL,NULL,NULL,NULL,msx_sim_1_2021_04_13_12.CDT,89000000000000,NULL,NULL,1,NULL,NULL,NULL,2021-04-13T08:29:25,NULL,NULL,4.405381203,NULL,NULL,16,NormalCallClearing,NULL,NULL,0,NULL,NULL,NULL,NULL,13,2,8,4,NULL,2021,0,AD,AD,msx_sim_1,89000000000000,89000000000000,NULL,885000000000,NULL,NULL,NULL,NULL,NULL,16,NormalCallClearing,NULL,NULL,NULL,NULL,0,NULL,0,NULL,4103,NULL,NULL,0,sip,Draft01,sip,NULL,885000000000,NULL,93,NULL,NULL,NULL,NULL,NULL,NULL,NULL,NULL,NULL,NULL,NULL,5,NULL,529.14.536.00,43232,532.51.28.98,54362,NULL,2021-04-13 12:28:00,2021-04-13T08:28:12,1,EST,NULL,2021-04-13 08:29:00,1618302574,America/New_York,13,2,12,4,2021,True,NULL,1,NULL,NULL,14358792,NULL,NULL,NULL,NULL,Packet Loss lower than 1%
2021-08-25 00:10:00,883000000000,54.590.05.60,NULL,NULL,WIWQ_Xvyrow/43,priv_trunk110,WIWQ_Xvyrow,43,000:00:21,21.01300049,21,00:29:34.1,NULL,NULL,NULL,ack-rx#na,0,NULL,000:00:05,387,source,529.14.536.01,NULL,IQIE_Xvyro/1,5060,trunk,IQIE_Xvyro,1,IV,1,885000000000,NULL,885000000000,NULL,885000000000,Subscriber,NULL,865196-7009824612-281011@iqie45-w7w46w5.kirferh.gsq,NULL,Subscriber,end1,NULL,NULL,NULL,Q20,unknown,unknown,g711ulaw,g711ulaw,NULL,NULL,167276,5,NULL,516.60.582.504,50038,536.03.680.98,32650,iqie_mrfsyrh,NULL,Q20_sim,N,NULL,NULL,NULL,NULL,NULL,NULL,NULL,NULL,NULL,NULL,NULL,msx_sim_1_2021_04_13_12.CDT,883000000000,NULL,NULL,1,NULL,NULL,NULL,2021-04-13T08:29:25,NULL,NULL,4.405381203,NULL,NULL,16,NormalCallClearing,NULL,NULL,0,NULL,NULL,NULL,NULL,13,2,8,4,NULL,2021,0,AD,AD,msx_sim_1,883000000000,883000000000,883000000000,885000000000,NULL,NULL,NULL,NULL,NULL,16,NormalCallClearing,NULL,NULL,NULL,NULL,0,NULL,0,NULL,1046,883000000000,NULL,0,sip,RFC3325,sip,NULL,885000000000,NULL,93,NULL,NULL,NULL,NULL,NULL,NULL,NULL,NULL,NULL,NULL,NULL,5,NULL,529.14.536.00,61970,532.51.28.98,45586,NULL,2021-04-13 12:29:00,2021-04-13T08:29:13,1,EST,NULL,2021-04-13 08:29:00,1618302574,America/New_York,13,2,12,4,2021,True,NULL,1,NULL,NULL,14434864,NULL,NULL,NULL,NULL,Packet Loss lower than 1%
2021-08-25 01:03:00,wmwmvqir,54.590.05.60,NULL,NULL,WIWQ5/19,priv_domain2,WIWQ5,19,000:00:04,4.059000015,4,00:29:35,NULL,Proxy Authentication Required,5407,ack-rx#100-rx,0,NULL,000:00:00,375,source,529.14.536.99,NULL,hCreqmg-7009372798.542495.447/0,5060,pub2_access,hCreqmg-7009372798.542495.447,0,IV,NULL,6007,NULL,6007,NULL,6007,Subscriber,NULL,31999066-7001472842-655402@iqie45-w7w45w5.kirferh.gsq,NULL,Subscriber,end1,NULL,NULL,NULL,Q20,g711ulaw,g711ulaw,g711ulaw,g711ulaw,NULL,32980,29800,NULL,NULL,54.590.05.670,51364,536.03.680.98,26146,NULL,NULL,Q20_sim,N,NULL,NULL,NULL,NULL,NULL,NULL,NULL,4.405381203,NULL,NULL,NULL,msx_sim_1_2021_04_13_12.CDT,wmwmvqir,NULL,NULL,0,NULL,NULL,NULL,2021-04-13T08:29:25,NULL,NULL,4.405381203,NULL,NULL,16,NormalCallClearing,NULL,NULL,0,NULL,NULL,NULL,NULL,13,2,8,4,NULL,2021,0,AD,AD,msx_sim_1,wmwmvqir,wmwmvqir,NULL,6007,NULL,NULL,NULL,NULL,NULL,21,CallRejected,NULL,NULL,NULL,0,0,0,0,210,187,NULL,0,0,sip,No,sip,NULL,6007,93,93,NULL,NULL,NULL,NULL,NULL,NULL,407,Proxy Authentication Required,NULL,Proxy Authentication Required,NULL,NULL,NULL,529.14.536.98,54834,532.51.28.98,55780,NULL,2021-04-13 12:29:00,2021-04-13T08:29:30,1,EDT,NULL,2021-04-13 08:29:00,1618302574,America/New_York,13,2,12,4,2021,True,NULL,1,NULL,NULL,16572252,NULL,NULL,NULL,NULL,Packet Loss lower than 1%
2021-08-25 01:30:00,881000000000,54.590.05.60,NULL,nuvia.com,WIWQ_Xvyrow/0,priv_level3,WIWQ_Xvyrow,0,000:01:28,87.66999817,88,00:29:34.5,NULL,NULL,NULL,ack-rx#na,0,NULL,000:00:04,669,source,529.14.536.01,NULL,IQIE_Xvyro/0,5060,trunk2,IQIE_Xvyro,0,IV,1,885000000000,NULL,885000000000,NULL,885000000000,Subscriber,NULL,924665-7000771660-025569@iqie45-w7w46w5.kirferh.gsq,NULL,Subscriber,end1,NULL,NULL,NULL,Q20,unknown,unknown,g711ulaw,g711ulaw,NULL,NULL,699200,5,NULL,516.60.589.84,50074,536.03.680.98,36122,pizip7yo_mrkviww,NULL,Q20_sim,N,NULL,NULL,NULL,NULL,NULL,NULL,NULL,NULL,NULL,NULL,NULL,msx_sim_1_2021_04_13_12.CDT,881000000000,NULL,NULL,1,NULL,NULL,NULL,2021-04-13T08:29:25,NULL,NULL,4.405381203,NULL,NULL,16,NormalCallClearing,NULL,NULL,0,NULL,NULL,NULL,NULL,13,2,8,4,NULL,2021,0,AD,AD,msx_sim_1,881000000000,881000000000,NULL,885000000000,NULL,NULL,NULL,NULL,NULL,16,NormalCallClearing,NULL,NULL,NULL,NULL,0,NULL,1,NULL,4370,NULL,NULL,0,sip,Draft01,sip,NULL,885000000000,NULL,93,NULL,NULL,NULL,NULL,NULL,NULL,NULL,NULL,NULL,NULL,NULL,5,NULL,529.14.536.00,26018,532.51.28.98,58800,NULL,2021-04-13 12:28:00,2021-04-13T08:28:06,1,EST,NULL,2021-04-13 08:29:00,1618302574,America/New_York,13,2,12,4,2021,True,NULL,1,NULL,NULL,15522147,NULL,NULL,NULL,NULL,Packet Loss lower than 1%
2021-08-25 01:50:00,psvihere,54.590.05.60,NULL,NULL,WIWQ5/19,priv_domain2,WIWQ5,19,000:01:07,66.63899994,67,00:29:34.7,NULL,NULL,NULL,ack-rx#na,0,NULL,000:00:00,235,destination,516.62.7.545,NULL,hCreqmg-7099307727.024886.523/1,5060,pub2_access,hCreqmg-7099307727.024886.523,1,IV,NULL,6007,NULL,6007,NULL,6007,Subscriber,NULL,67j78h4-4-57g8-30g4j-9j6i7498-30g4j@kirferh.gsq,NULL,Subscriber,end1,NULL,NULL,NULL,Q20,g711ulaw,g711ulaw,g711ulaw,g711ulaw,NULL,291840,278324,NULL,NULL,NULL,64980,536.03.680.98,24454,NULL,NULL,Q20_sim,N,NULL,NULL,NULL,NULL,NULL,NULL,NULL,4.405381203,NULL,NULL,NULL,msx_sim_1_2021_04_13_12.CDT,psvihere,NULL,NULL,0,NULL,NULL,NULL,2021-04-13T08:29:25,NULL,NULL,4.405381203,NULL,NULL,16,NormalCallClearing,NULL,NULL,0,NULL,NULL,NULL,NULL,13,2,8,4,NULL,2021,0,AD,AD,msx_sim_1,psvihere,psvihere,NULL,6007,NULL,NULL,NULL,NULL,NULL,16,NormalCallClearing,NULL,NULL,NULL,0,0,0,0,1824,1838,NULL,0,0,sip,No,sip,NULL,6007,93,93,NULL,NULL,NULL,NULL,NULL,NULL,NULL,NULL,NULL,Proxy Authentication Required,NULL,NULL,NULL,NULL,10000,532.51.28.98,55088,NULL,2021-04-13 12:28:00,2021-04-13T08:28:27,1,EST,NULL,2021-04-13 08:29:00,1618302574,America/New_York,13,2,12,4,2021,True,NULL,1,NULL,NULL,15534699,NULL,NULL,NULL,NULL,Packet Loss lower than 1%
2021-08-25 03:20:00,645000000000,54.590.05.60,NULL,nuvia.com,WIWQ_Xvyrow/0,priv_level3,WIWQ_Xvyrow,0,000:30:45,1845.170044,1845,00:29:34.8,NULL,NULL,NULL,ack-rx#na,0,NULL,000:00:01,243,source,529.14.536.01,NULL,IQIE_Xvyro/0,5060,trunk2,IQIE_Xvyro,0,IV,1,885000000000,NULL,885000000000,NULL,885000000000,Subscriber,NULL,185227-7000307051-551161@iqie45-w7w46w5.kirferh.gsq,NULL,Subscriber,end1,NULL,NULL,NULL,Q20,g711ulaw,g711ulaw,g711ulaw,g711ulaw,NULL,14792828,14760276,5,NULL,54.590.05.78,32348,536.03.680.98,30496,pizip7yo_mrkviww,NULL,Q20_sim,N,NULL,NULL,NULL,NULL,NULL,NULL,NULL,4.258759022,NULL,NULL,NULL,msx_sim_1_2021_04_13_12.CDT,645000000000,NULL,NULL,1,NULL,NULL,NULL,2021-04-13T08:29:25,NULL,NULL,4.405381203,NULL,NULL,16,NormalCallClearing,NULL,NULL,0,NULL,NULL,NULL,NULL,13,2,8,4,NULL,2021,0,AD,AD,msx_sim_1,645000000000,645000000000,NULL,885000000000,NULL,NULL,NULL,NULL,NULL,16,NormalCallClearing,NULL,NULL,NULL,1025,11,1025,11,91563,92425,NULL,0,0,sip,Draft01,sip,NULL,885000000000,87,93,NULL,NULL,NULL,NULL,NULL,NULL,NULL,NULL,NULL,NULL,NULL,5,NULL,529.14.536.00,49362,532.51.28.98,47774,NULL,2021-04-13 11:58:00,2021-04-13T07:58:49,1,EDT,NULL,2021-04-13 08:29:00,1618302574,America/New_York,13,2,12,4,2021,True,NULL,1,NULL,NULL,16459845,NULL,NULL,NULL,NULL,Packet Loss greater than 1%
2021-08-25 06:00:00,885000000000,54.590.05.60,NULL,nuvia.com,WIWQ_Xvyrow/0,priv_level3,WIWQ_Xvyrow,0,000:00:17,16.88400078,17,00:29:34.7,NULL,NULL,NULL,ack-rx#na,0,NULL,000:00:08,1006,destination,529.14.536.01,NULL,IQIE_Xvyro/0,5060,trunk2,IQIE_Xvyro,0,IV,1,885000000000,NULL,885000000000,NULL,885000000000,Subscriber,NULL,907076-7005589361-231115@iqie45-w7w46w5.kirferh.gsq,NULL,Subscriber,end1,NULL,NULL,NULL,Q20,unknown,unknown,g729,g729,NULL,NULL,16660,5,NULL,54.31.69.570,50026,536.03.680.98,39432,pizip7yo_mrkviww,NULL,Q20_sim,N,NULL,NULL,NULL,NULL,NULL,NULL,NULL,NULL,NULL,NULL,NULL,msx_sim_1_2021_04_13_12.CDT,885000000000,NULL,NULL,1,NULL,NULL,NULL,2021-04-13T08:29:25,NULL,NULL,4.132171154,NULL,NULL,16,NormalCallClearing,NULL,NULL,0,NULL,NULL,NULL,NULL,13,2,8,4,NULL,2021,0,AD,AD,msx_sim_1,885000000000,885000000000,NULL,885000000000,NULL,NULL,NULL,NULL,NULL,16,NormalCallClearing,NULL,NULL,NULL,NULL,0,NULL,0,NULL,833,NULL,NULL,0,sip,Draft01,sip,NULL,885000000000,NULL,83,NULL,NULL,NULL,NULL,NULL,NULL,NULL,NULL,NULL,NULL,NULL,5,NULL,529.14.536.00,32156,532.51.28.98,57436,NULL,2021-04-13 12:29:00,2021-04-13T08:29:17,1,EST,NULL,2021-04-13 08:29:00,1618302574,America/New_York,13,2,12,4,2021,True,NULL,1,NULL,NULL,14357018,NULL,NULL,NULL,NULL,Packet Loss lower than 1%
2021-08-25 06:10:00,sxxgsrj_epksruy,54.590.05.60,NULL,NULL,WIWQ5/19,priv_domain2,WIWQ5,19,000:00:00,0,0,00:29:34.8,Request Terminated-Call Abandoned,Request Terminated-Call Abandoned,2,18x-tx#18x-rx,2,NULL,000:00:05,261,source,516.62.7.544,NULL,hCreqmg-7091768668.861869.590/13,5060,pub2_access,hCreqmg-7091768668.861869.590,13,IV,NULL,6227,NULL,6227,NULL,6227,Subscriber,NULL,6hf8ge2-4-57g8-74e64j-9h8h0375-74e64j@kirferh.gsq,NULL,Subscriber,end1,NULL,NULL,NULL,Q20,g711ulaw,g711ulaw,g711ulaw,g711ulaw,NULL,35840,36160,NULL,NULL,54.590.05.78,21012,536.03.680.98,24438,NULL,NULL,Q20_sim,A,NULL,NULL,NULL,NULL,NULL,NULL,NULL,4.405381203,NULL,NULL,NULL,msx_sim_1_2021_04_13_12.CDT,sxxgsrj_epksruymr,NULL,NULL,0,NULL,NULL,NULL,2021-04-13T08:29:25,NULL,NULL,4.405381203,NULL,NULL,16,NormalCallClearing,NULL,NULL,0,NULL,NULL,NULL,NULL,13,2,8,4,NULL,2021,0,AD,AD,msx_sim_1,sxxgsrj_epksruymr,sxxgsrj_epksruymr,NULL,6227,NULL,NULL,NULL,NULL,NULL,16,NormalCallClearing,NULL,NULL,NULL,0,0,0,0,224,226,NULL,0,0,sip,No,sip,NULL,6227,93,93,NULL,NULL,NULL,NULL,NULL,NULL,487,Request Terminated,487,Request Terminated,NULL,NULL,NULL,516.62.7.544,10120,532.51.28.98,54860,NULL,2021-04-13 12:29:00,2021-04-13T08:29:34,1,EST,NULL,2021-04-13 08:29:00,1618302574,America/New_York,13,2,12,4,2021,True,NULL,1,NULL,NULL,13510095,NULL,NULL,NULL,NULL,Packet Loss lower than 1%
2021-08-25 06:15:00,sxxgsrj_hezmrgm,54.590.05.60,NULL,NULL,WIWQ5/19,priv_domain2,WIWQ5,19,000:19:38,1178.005005,1178,00:29:34.6,NULL,Proxy Authentication Required,5407,ack-tx#100-rx,0,NULL,000:00:01,149,source,516.62.7.545,NULL,hCreqmg-7008374697.592682.538/15,5060,pub2_access,hCreqmg-7008374697.592682.538,15,IV,NULL,772,NULL,772,NULL,772,Subscriber,NULL,67j5812-4-57g8-e4f8-100i18eh-e4f8@kirferh.gsq,NULL,Subscriber,end1,NULL,NULL,NULL,Q20,"g711ulaw,unknown",g711ulaw,"g711ulaw, unknown",g711ulaw,NULL,9408640,9412444,NULL,NULL,"54.590.05.78, 54.590.05.78","32016, 31188","536.03.680.98, 536.03.680.98","25494, 25804",NULL,NULL,Q20_sim,N,NULL,NULL,NULL,NULL,NULL,NULL,NULL,4.258759022,NULL,NULL,NULL,msx_sim_1_2021_04_13_12.CDT,sxxgsrj_hezmrgm,NULL,NULL,0,NULL,NULL,NULL,2021-04-13T08:29:25,NULL,NULL,4.405381203,NULL,NULL,16,NormalCallClearing,NULL,NULL,0,NULL,NULL,NULL,NULL,13,2,8,4,NULL,2021,0,"AD,VD","AD,VD",msx_sim_1,sxxgsrj_hezmrgm,sxxgsrj_hezmrgm,NULL,772,NULL,NULL,NULL,NULL,NULL,21,CallRejected,NULL,NULL,NULL,704,0,707,0,58099,58896,NULL,0,0,sip,No,sip,NULL,772,87,93,NULL,NULL,NULL,NULL,NULL,NULL,407,Proxy Authentication Required,NULL,Proxy Authentication Required,NULL,NULL,NULL,516.62.7.545,"10000, 0",532.51.28.98,41450,NULL,2021-04-13 12:09:00,2021-04-13T08:09:56,1,EST,NULL,2021-04-13 08:29:00,1618302574,America/New_York,13,2,12,4,2021,True,NULL,2,NULL,NULL,15074578,NULL,NULL,NULL,NULL,Packet Loss greater than 1%
2021-08-25 07:03:00,nsAekriv,54.590.05.60,NULL,NULL,WIWQ5/19,priv_domain2,WIWQ5,19,000:00:11,10.74400043,11,00:29:34.2,NULL,NULL,NULL,200-tx#na,0,NULL,000:00:05,329,destination,529.14.536.99,NULL,hCreqmg-7009372798.542495.447/9,5060,pub2_access,hCreqmg-7009372798.542495.447,9,IV,NULL,nkeper,NULL,nkeper,NULL,nkeper,Subscriber,NULL,11617999-7000024407-601844@iqie45-w7w45w5.kirferh.gsq,NULL,Subscriber,end1,NULL,NULL,NULL,Q20,unknown,unknown,unknown,unknown,NULL,NULL,NULL,NULL,NULL,516.68.552.95,23032,536.03.680.98,43658,NULL,NULL,Q20_sim,N,NULL,NULL,NULL,NULL,NULL,NULL,NULL,NULL,NULL,NULL,NULL,msx_sim_1_2021_04_13_12.CDT,nsAekriv,NULL,NULL,0,NULL,NULL,NULL,2021-04-13T08:29:25,NULL,NULL,NULL,NULL,NULL,102,RecoveryOnTimerExpiry,NULL,NULL,0,NULL,NULL,NULL,NULL,13,2,8,4,NULL,2021,0,"AD,VD","AD,VD",msx_sim_1,nsAekriv,nsAekriv,NULL,nkeper,NULL,NULL,NULL,NULL,NULL,16,NormalCallClearing,NULL,NULL,NULL,NULL,NULL,NULL,NULL,NULL,NULL,NULL,NULL,NULL,sip,No,sip,NULL,nkeper,NULL,NULL,NULL,NULL,NULL,NULL,NULL,NULL,NULL,NULL,408,NULL,NULL,NULL,NULL,529.14.536.98,45870,532.51.28.98,44290,NULL,2021-04-13 12:29:00,2021-04-13T08:29:23,1,EST,NULL,2021-04-13 08:29:00,1618302574,America/New_York,13,2,12,4,2021,True,NULL,1,NULL,NULL,16118578,NULL,NULL,NULL,NULL,Not applicable
2021-08-25 07:35:00,vxtgsrj5z3,54.590.05.60,NULL,NULL,WIWQ5/19,priv_domain2,WIWQ5,19,000:00:41,40.68999863,41,00:29:34.4,NULL,Proxy Authentication Required,5407,ack-tx#100-rx,0,NULL,000:00:10,132,source,516.61.50.3,NULL,hCreqmg-7091768666.092333.555/1,5060,pub2_access,hCreqmg-7091768666.092333.555,1,IV,NULL,1533131,NULL,1533131,NULL,1533131,Subscriber,NULL,69182i4-4-57g8-511447-9804ijg-511447@kirferh.gsq,NULL,Subscriber,end1,NULL,NULL,NULL,Q20,g711ulaw,g711ulaw,g711ulaw,g711ulaw,NULL,304480,306080,NULL,NULL,NULL,45352,536.03.680.98,37374,NULL,NULL,Q20_sim,N,NULL,NULL,NULL,NULL,NULL,NULL,NULL,4.024000168,NULL,NULL,NULL,msx_sim_1_2021_04_13_12.CDT,vxtgsrj5z3,NULL,NULL,0,NULL,NULL,NULL,2021-04-13T08:29:25,NULL,NULL,4.405381203,NULL,NULL,16,NormalCallClearing,NULL,NULL,0,NULL,NULL,NULL,NULL,13,2,8,4,NULL,2021,0,AD,AD,msx_sim_1,vxtgsrj5z3,vxtgsrj5z3,NULL,1533131,NULL,NULL,NULL,NULL,NULL,21,CallRejected,NULL,NULL,NULL,30,0,30,0,1873,1916,NULL,1000,0,sip,No,sip,NULL,1533131,80,93,NULL,NULL,NULL,NULL,NULL,NULL,407,Proxy Authentication Required,NULL,Proxy Authentication Required,NULL,NULL,NULL,516.61.50.3,10000,532.51.28.98,58626,NULL,2021-04-13 12:28:00,2021-04-13T08:28:53,1,EST,NULL,2021-04-13 08:29:00,1618302574,America/New_York,13,2,12,4,2021,True,NULL,1,NULL,NULL,14748089,NULL,NULL,NULL,NULL,Packet Loss greater than 1%
2021-08-25 07:43:00,vyhmixps,54.590.05.60,NULL,NULL,WIWQ5/19,priv_domain2,WIWQ5,19,001:16:14,4573.556152,4574,00:29:34.2,NULL,Proxy Authentication Required,5407,ack-tx#100-rx,0,NULL,000:00:02,206,source,529.14.536.99,NULL,hCreqmg-7009372798.542495.447/1,5060,pub2_access,hCreqmg-7009372798.542495.447,1,IV,NULL,772,NULL,772,NULL,772,Subscriber,NULL,15359605-7000936268-128024@iqie45-w7w45w5.kirferh.gsq,NULL,Subscriber,end1,NULL,NULL,NULL,Q20,"g711ulaw,H263",g711ulaw,"g711ulaw, H263",g711ulaw,NULL,36630928,36638624,NULL,NULL,"54.590.05.77, 54.590.05.77","31620, 31520","536.03.680.98, 536.03.680.98","32772, 32774",NULL,NULL,Q20_sim,N,NULL,NULL,NULL,NULL,NULL,NULL,NULL,4.229127884,NULL,NULL,NULL,msx_sim_1_2021_04_13_12.CDT,vyhmixps,NULL,NULL,0,NULL,NULL,NULL,2021-04-13T08:29:25,NULL,NULL,4.024000168,NULL,NULL,16,NormalCallClearing,89,89,0,NULL,NULL,NULL,NULL,13,2,8,4,NULL,2021,0,"AD,VD","AD,VD",msx_sim_1,vyhmixps,vyhmixps,NULL,772,NULL,NULL,NULL,NULL,NULL,21,CallRejected,NULL,NULL,NULL,2723,4398,2724,4398,226654,225159,NULL,500,875,sip,No,sip,NULL,772,86,80,NULL,NULL,NULL,NULL,NULL,NULL,407,Proxy Authentication Required,NULL,Proxy Authentication Required,NULL,NULL,NULL,"529.14.536.98, 529.14.536.98","19784, 19788","532.51.28.98, 532.51.28.98","55602, 55604",NULL,2021-04-13 11:13:00,2021-04-13T07:13:20,1,EST,NULL,2021-04-13 08:29:00,1618302574,America/New_York,13,2,12,4,2021,True,NULL,2,NULL,NULL,15969464,NULL,NULL,NULL,NULL,Packet Loss greater than 1%
2021-08-25 07:57:00,lvjeBtpers,54.590.05.60,NULL,NULL,WIWQ5/19,priv_domain2,WIWQ5,19,000:01:40,99.72499847,100,00:29:34.9,NULL,NULL,NULL,ack-rx#na,0,NULL,000:00:02,1928,destination,516.50.6.54,NULL,hCreqmg-7005055027.313808.494/2,5060,pub2_access,hCreqmg-7005055027.313808.494,2,IV,NULL,2007583139,NULL,2007583139,NULL,2007583139,Subscriber,NULL,6920284-4-57g8-710h56-887jf04-710h56@kirferh.gsq,NULL,Subscriber,end1,NULL,NULL,NULL,Q20,unknown,unknown,g711ulaw,g711ulaw,NULL,NULL,798720,NULL,NULL,08.38.549.594,26184,536.03.680.98,38138,NULL,NULL,Q20_sim,N,NULL,NULL,NULL,NULL,NULL,NULL,NULL,NULL,NULL,NULL,NULL,msx_sim_1_2021_04_13_12.CDT,lvjeBtpers,NULL,NULL,0,NULL,NULL,NULL,2021-04-13T08:29:25,NULL,NULL,4.405381203,NULL,NULL,16,NormalCallClearing,NULL,NULL,0,NULL,NULL,NULL,NULL,13,2,8,4,NULL,2021,0,AD,AD,msx_sim_1,lvjeBtpers,lvjeBtpers,NULL,2007583139,NULL,NULL,NULL,NULL,NULL,16,NormalCallClearing,NULL,NULL,NULL,NULL,0,NULL,0,NULL,4989,NULL,NULL,0,sip,No,sip,NULL,2007583139,NULL,93,NULL,NULL,NULL,NULL,NULL,NULL,NULL,NULL,NULL,Proxy Authentication Required,NULL,NULL,NULL,516.50.6.54,10002,532.51.28.98,59626,NULL,2021-04-13 12:27:00,2021-04-13T08:27:54,1,EST,NULL,2021-04-13 08:29:00,1618302574,America/New_York,13,2,12,4,2021,True,NULL,1,NULL,NULL,16330900,NULL,NULL,NULL,NULL,Packet Loss lower than 1%
2021-08-25 08:05:00,hwtevow,54.590.05.60,NULL,NULL,WIWQ5/19,priv_domain2,WIWQ5,19,000:32:47,1967.254028,1967,00:29:34.3,NULL,Proxy Authentication Required,5407,ack-rx#100-rx,0,NULL,000:00:04,2738,source,516.50.6.55,NULL,hCreqmg-7091768667.558656.568/13,5060,pub2_access,hCreqmg-7091768667.558656.568,13,IV,NULL,6561324242,NULL,6561324242,NULL,6561324242,Subscriber,NULL,67ji3j4-4-57g8-6824h8-66h70573-6824h8@kirferh.gsq,NULL,Subscriber,end1,NULL,NULL,NULL,Q20,unknown,unknown,g711ulaw,g711ulaw,NULL,NULL,15733432,NULL,NULL,08.38.549.594,27978,536.03.680.98,41366,NULL,NULL,Q20_sim,N,NULL,NULL,NULL,NULL,NULL,NULL,NULL,NULL,NULL,NULL,NULL,msx_sim_1_2021_04_13_12.CDT,hwtevow,NULL,NULL,0,NULL,NULL,NULL,2021-04-13T08:29:25,NULL,NULL,4.405381203,NULL,NULL,16,NormalCallClearing,NULL,NULL,0,NULL,NULL,NULL,NULL,13,2,8,4,NULL,2021,0,AD,AD,msx_sim_1,hwtevow,hwtevow,NULL,6561324242,NULL,NULL,NULL,NULL,NULL,21,CallRejected,NULL,NULL,NULL,NULL,0,NULL,0,NULL,98449,NULL,NULL,0,sip,No,sip,NULL,6561324242,NULL,93,NULL,NULL,NULL,NULL,NULL,NULL,407,Proxy Authentication Required,NULL,Proxy Authentication Required,NULL,NULL,NULL,516.50.6.55,10000,532.51.28.98,42364,NULL,2021-04-13 11:56:00,2021-04-13T07:56:47,1,EST,NULL,2021-04-13 08:29:00,1618302574,America/New_York,13,2,12,4,2021,True,NULL,1,NULL,NULL,14408482,NULL,NULL,NULL,NULL,Packet Loss lower than 1%
2021-08-25 08:25:00,Viwxvmgxih,54.590.05.60,NULL,nuvia.com,WIWQ_Xvyrow/0,priv_level3,WIWQ_Xvyrow,0,000:01:54,113.8860016,114,00:29:33.1,NULL,NULL,NULL,ack-rx#na,0,NULL,000:00:13,572,source,529.14.536.01,NULL,IQIE_Xvyro/0,5060,trunk2,IQIE_Xvyro,0,IV,1,885000000000,NULL,885000000000,NULL,885000000000,Subscriber,NULL,148027-7006616515-934079@iqie45-w7w46w5.kirferh.gsq,NULL,Subscriber,end1,NULL,NULL,NULL,Q20,unknown,unknown,g711ulaw,g711ulaw,NULL,NULL,909120,5,NULL,516.60.582.649,50068,536.03.680.98,29066,pizip7yo_mrkviww,NULL,Q20_sim,N,NULL,NULL,NULL,NULL,NULL,NULL,NULL,NULL,NULL,NULL,NULL,msx_sim_1_2021_04_13_12.CDT,Viwxvmgxih,NULL,NULL,1,NULL,NULL,NULL,2021-04-13T08:29:24,NULL,NULL,4.405381203,NULL,NULL,16,NormalCallClearing,NULL,NULL,0,NULL,NULL,NULL,NULL,13,2,8,4,NULL,2021,0,AD,AD,msx_sim_1,Viwxvmgxih,Viwxvmgxih,NULL,885000000000,NULL,NULL,NULL,NULL,NULL,16,NormalCallClearing,NULL,NULL,NULL,NULL,0,NULL,1,NULL,5682,NULL,NULL,0,sip,No,sip,NULL,885000000000,NULL,93,NULL,NULL,NULL,NULL,NULL,NULL,NULL,NULL,NULL,NULL,NULL,5,NULL,529.14.536.00,56488,532.51.28.98,58006,NULL,2021-04-13 12:27:00,2021-04-13T08:27:39,1,EST,NULL,2021-04-13 08:29:00,1618302573,America/New_York,13,2,12,4,2021,True,NULL,1,NULL,NULL,15609588,NULL,NULL,NULL,NULL,Packet Loss lower than 1%
2021-08-25 08:32:00,888000000000,54.590.05.60,NULL,nuvia.com,WIWQ_Xvyrow/0,priv_level3,WIWQ_Xvyrow,0,000:55:29,3328.815918,3329,00:29:33.6,NULL,NULL,NULL,ack-rx#na,0,NULL,000:00:02,135,source,529.14.536.01,NULL,IQIE_Xvyro/0,5060,trunk2,IQIE_Xvyro,0,IV,1,885000000000,NULL,885000000000,NULL,885000000000,Subscriber,NULL,817574-7009259663-540904@iqie45-w7w46w5.kirferh.gsq,NULL,Subscriber,end1,NULL,NULL,NULL,Q20,g711ulaw,g711ulaw,g711ulaw,g711ulaw,NULL,26654896,26625568,5,NULL,54.590.05.77,31316,536.03.680.98,21694,pizip7yo_mrkviww,NULL,Q20_sim,N,NULL,NULL,NULL,NULL,NULL,NULL,NULL,4.258759022,NULL,NULL,NULL,msx_sim_1_2021_04_13_12.CDT,888000000000,NULL,NULL,1,NULL,NULL,NULL,2021-04-13T08:29:24,NULL,NULL,4.405381203,NULL,NULL,16,NormalCallClearing,NULL,NULL,0,NULL,NULL,NULL,NULL,13,2,8,4,NULL,2021,0,AD,AD,msx_sim_1,888000000000,888000000000,NULL,885000000000,NULL,NULL,NULL,NULL,NULL,16,NormalCallClearing,NULL,NULL,NULL,2088,0,2089,24,164821,166558,NULL,0,0,sip,Draft01,sip,NULL,885000000000,87,93,NULL,NULL,NULL,NULL,NULL,NULL,NULL,NULL,NULL,NULL,NULL,5,NULL,529.14.536.00,28324,532.51.28.98,58664,NULL,2021-04-13 11:34:00,2021-04-13T07:34:04,1,EST,NULL,2021-04-13 08:29:00,1618302573,America/New_York,13,2,12,4,2021,True,NULL,1,NULL,NULL,14849851,NULL,NULL,NULL,NULL,Packet Loss greater than 1%
2021-08-25 08:47:00,vhsyBeqm,54.590.05.60,NULL,NULL,WIWQ5/19,priv_domain2,WIWQ5,19,000:09:13,553.2039795,553,00:29:33.1,NULL,NULL,NULL,ack-rx#na,0,NULL,000:00:09,932,destination,536.502.4.57,NULL,hCreqmg-7091379488.586768.483/0,5060,pub2_access,hCreqmg-7091379488.586768.483,0,IV,NULL,9678868,NULL,9678868,NULL,9678868,Subscriber,NULL,38fi8732-g4e2444h-57g8-7f15g9-9jfg3926-7f15g9@kirferh.gsq,NULL,Subscriber,end1,NULL,NULL,NULL,Q20,unknown,unknown,g729,g729,NULL,NULL,552660,NULL,NULL,5.664.3.544,50030,536.03.680.98,35594,NULL,NULL,Q20_sim,N,NULL,NULL,NULL,NULL,NULL,NULL,NULL,NULL,NULL,NULL,NULL,msx_sim_1_2021_04_13_12.CDT,vhsyBeqm,NULL,NULL,0,NULL,NULL,NULL,2021-04-13T08:29:24,NULL,NULL,3.734360933,NULL,NULL,16,NormalCallClearing,NULL,NULL,0,NULL,NULL,NULL,NULL,13,2,8,4,NULL,2021,0,AD,AD,msx_sim_1,vhsyBeqm,vhsyBeqm,NULL,9678868,NULL,NULL,NULL,NULL,NULL,16,NormalCallClearing,NULL,NULL,NULL,NULL,622,NULL,635,NULL,27011,NULL,NULL,3000,sip,No,sip,NULL,9678868,NULL,73,NULL,NULL,NULL,NULL,NULL,NULL,NULL,NULL,NULL,Proxy Authentication Required,NULL,NULL,NULL,536.502.4.57,23014,532.51.28.98,43484,NULL,2021-04-13 12:20:00,2021-04-13T08:20:20,1,EST,NULL,2021-04-13 08:29:00,1618302573,America/New_York,13,2,12,4,2021,True,NULL,1,NULL,NULL,14502010,NULL,NULL,NULL,NULL,Packet Loss greater than 1%
2021-08-25 08:59:00,Viwxvmgxih,54.590.05.60,NULL,nuvia.com,WIWQ_Xvyrow/0,priv_level3,WIWQ_Xvyrow,0,000:05:27,326.7269897,327,00:29:33.6,NULL,NULL,NULL,ack-rx#na,0,NULL,000:00:09,447,destination,529.14.536.01,NULL,IQIE_Xvyro/0,5060,trunk2,IQIE_Xvyro,0,IV,1,885000000000,NULL,885000000000,NULL,885000000000,Subscriber,NULL,619151-7008137438-027264@iqie45-w7w46w5.kirferh.gsq,NULL,Subscriber,end1,NULL,NULL,NULL,Q20,unknown,unknown,g729,g729,NULL,NULL,326520,5,NULL,516.60.507.28,23046,536.03.680.98,32806,pizip7yo_mrkviww,NULL,Q20_sim,N,NULL,NULL,NULL,NULL,NULL,NULL,NULL,NULL,NULL,NULL,NULL,msx_sim_1_2021_04_13_12.CDT,Viwxvmgxih,NULL,NULL,1,NULL,NULL,NULL,2021-04-13T08:29:24,NULL,NULL,4.132171154,NULL,NULL,16,NormalCallClearing,NULL,NULL,0,NULL,NULL,NULL,NULL,13,2,8,4,NULL,2021,0,AD,AD,msx_sim_1,Viwxvmgxih,Viwxvmgxih,NULL,885000000000,NULL,NULL,NULL,NULL,NULL,16,NormalCallClearing,NULL,NULL,NULL,NULL,0,NULL,0,NULL,16326,NULL,NULL,0,sip,No,sip,NULL,885000000000,NULL,83,NULL,NULL,NULL,NULL,NULL,NULL,NULL,NULL,NULL,NULL,NULL,5,NULL,529.14.536.00,11284,532.51.28.98,45720,NULL,2021-04-13 12:24:00,2021-04-13T08:24:06,1,EST,NULL,2021-04-13 08:29:00,1618302573,America/New_York,13,2,12,4,2021,True,NULL,1,NULL,NULL,13515985,NULL,NULL,NULL,NULL,Packet Loss lower than 1%
2021-08-25 09:03:00,5448348,54.590.05.60,NULL,nuvia.com,WIWQ_Xvyrow/0,priv_level3,WIWQ_Xvyrow,0,000:01:21,81.3219986,81,00:29:33,NULL,NULL,NULL,ack-tx#na,0,NULL,000:00:14,551,destination,529.14.536.01,NULL,IQIE_Xvyro/0,5060,trunk2,IQIE_Xvyro,0,IV,1,885000000000,NULL,885000000000,NULL,885000000000,Subscriber,NULL,853932-7009819295-714259@iqie45-w7w46w5.kirferh.gsq,NULL,Subscriber,end1,NULL,NULL,NULL,Q20,g711ulaw,g711ulaw,g711ulaw,g711ulaw,NULL,42960,648480,5,NULL,529.14.536.98,24956,536.03.680.98,29208,pizip7yo_mrkviww,NULL,Q20_sim,N,NULL,NULL,NULL,NULL,NULL,NULL,NULL,4.405381203,NULL,NULL,NULL,msx_sim_1_2021_04_13_12.CDT,5448348,NULL,NULL,1,NULL,NULL,NULL,2021-04-13T08:29:24,NULL,NULL,4.405381203,NULL,NULL,16,NormalCallClearing,NULL,NULL,0,NULL,NULL,NULL,NULL,13,2,8,4,NULL,2021,0,AD,AD,msx_sim_1,5448348,5448348,NULL,885000000000,NULL,NULL,NULL,NULL,NULL,16,NormalCallClearing,NULL,NULL,NULL,0,0,0,4,270,4059,NULL,250,0,sip,Draft01,sip,NULL,885000000000,93,93,NULL,NULL,NULL,NULL,NULL,NULL,NULL,NULL,NULL,NULL,NULL,5,NULL,529.14.536.00,58440,532.51.28.98,40888,NULL,2021-04-13 12:28:00,2021-04-13T08:28:12,1,EST,NULL,2021-04-13 08:29:00,1618302573,America/New_York,13,2,12,4,2021,True,NULL,1,NULL,NULL,14432444,NULL,NULL,NULL,NULL,Packet Loss lower than 1%
2021-08-25 09:12:00,886000000000,54.590.05.60,NULL,nuvia.com,WIWQ_Xvyrow/0,priv_level3,WIWQ_Xvyrow,0,000:00:22,22.45999908,22,00:29:33.8,NULL,NULL,NULL,ack-rx#na,0,NULL,000:00:07,394,source,529.14.536.01,NULL,IQIE_Xvyro/0,5060,trunk2,IQIE_Xvyro,0,IV,1,885000000000,NULL,885000000000,NULL,885000000000,Subscriber,NULL,852396-7009818080-921966@iqie45-w7w46w5.kirferh.gsq,NULL,Subscriber,end1,NULL,NULL,NULL,Q20,unknown,unknown,g729,g729,NULL,NULL,22240,5,NULL,516.60.582.504,50022,536.03.680.98,28440,pizip7yo_mrkviww,NULL,Q20_sim,N,NULL,NULL,NULL,NULL,NULL,NULL,NULL,NULL,NULL,NULL,NULL,msx_sim_1_2021_04_13_12.CDT,886000000000,NULL,NULL,1,NULL,NULL,NULL,2021-04-13T08:29:24,NULL,NULL,4.132171154,NULL,NULL,16,NormalCallClearing,NULL,NULL,0,NULL,NULL,NULL,NULL,13,2,8,4,NULL,2021,0,AD,AD,msx_sim_1,886000000000,886000000000,NULL,885000000000,NULL,NULL,NULL,NULL,NULL,16,NormalCallClearing,NULL,NULL,NULL,NULL,0,NULL,0,NULL,1112,NULL,NULL,0,sip,Draft01,sip,NULL,885000000000,NULL,83,NULL,NULL,NULL,NULL,NULL,NULL,NULL,NULL,NULL,NULL,NULL,5,NULL,529.14.536.00,57378,532.51.28.98,40012,NULL,2021-04-13 12:29:00,2021-04-13T08:29:11,1,EST,NULL,2021-04-13 08:29:00,1618302573,America/New_York,13,2,12,4,2021,True,NULL,1,NULL,NULL,14431906,NULL,NULL,NULL,NULL,Packet Loss lower than 1%
2021-08-25 09:23:00,Viwxvmgxih,54.590.05.60,NULL,nuvia.com,WIWQ_Xvyrow/0,priv_level3,WIWQ_Xvyrow,0,000:15:08,908.3239746,908,00:29:33.4,NULL,NULL,NULL,ack-tx#na,0,NULL,000:00:01,121,source,529.14.536.01,NULL,IQIE_Xvyro/0,5060,trunk2,IQIE_Xvyro,0,IV,1,885000000000,NULL,885000000000,NULL,885000000000,Subscriber,NULL,162046-7006725607-216106@iqie45-w7w46w5.kirferh.gsq,NULL,Subscriber,end1,NULL,NULL,NULL,Q20,g711ulaw,g711ulaw,g711ulaw,g711ulaw,NULL,7264876,7265236,5,NULL,54.590.05.77,31608,536.03.680.98,41406,pizip7yo_mrkviww,NULL,Q20_sim,N,NULL,NULL,NULL,NULL,NULL,NULL,NULL,4.229127884,NULL,NULL,NULL,msx_sim_1_2021_04_13_12.CDT,Viwxvmgxih,NULL,NULL,1,NULL,NULL,NULL,2021-04-13T08:29:24,NULL,NULL,4.405381203,NULL,NULL,16,NormalCallClearing,NULL,NULL,0,NULL,NULL,NULL,NULL,13,2,8,4,NULL,2021,0,AD,AD,msx_sim_1,Viwxvmgxih,Viwxvmgxih,NULL,885000000000,NULL,NULL,NULL,NULL,NULL,16,NormalCallClearing,NULL,NULL,NULL,843,0,846,0,44648,45514,NULL,1625,0,sip,No,sip,NULL,885000000000,86,93,NULL,NULL,NULL,NULL,NULL,NULL,NULL,NULL,NULL,NULL,NULL,5,NULL,529.14.536.00,43812,532.51.28.98,44798,NULL,2021-04-13 12:14:00,2021-04-13T08:14:25,1,EST,NULL,2021-04-13 08:29:00,1618302573,America/New_York,13,2,12,4,2021,True,NULL,1,NULL,NULL,15776041,NULL,NULL,NULL,NULL,Packet Loss greater than 1%
2021-08-25 09:34:00,85926658444,54.590.05.60,NULL,nuvia.com,WIWQ_Xvyrow/0,priv_level3,WIWQ_Xvyrow,0,000:02:40,160.0099945,160,00:29:33.2,NULL,NULL,NULL,ack-rx#na,0,NULL,000:00:11,2082,source,529.14.536.01,NULL,IQIE_Xvyro/0,5060,trunk2,IQIE_Xvyro,0,IV,1,885000000000,NULL,885000000000,NULL,885000000000,Subscriber,NULL,987519-7000412883-134106@iqie45-w7w46w5.kirferh.gsq,NULL,Subscriber,end1,NULL,NULL,NULL,Q20,unknown,unknown,g729,g729,NULL,NULL,159780,5,NULL,5.664.50.546,50066,536.03.680.98,49192,pizip7yo_mrkviww,NULL,Q20_sim,N,NULL,NULL,NULL,NULL,NULL,NULL,NULL,NULL,NULL,NULL,NULL,msx_sim_1_2021_04_13_12.CDT,85926658444,NULL,NULL,1,NULL,NULL,NULL,2021-04-13T08:29:24,NULL,NULL,4.132171154,NULL,NULL,16,NormalCallClearing,NULL,NULL,0,NULL,NULL,NULL,NULL,13,2,8,4,NULL,2021,0,AD,AD,msx_sim_1,85926658444,85926658444,NULL,885000000000,NULL,NULL,NULL,NULL,NULL,16,NormalCallClearing,NULL,NULL,NULL,NULL,0,NULL,0,NULL,7989,NULL,NULL,0,sip,Draft01,sip,NULL,885000000000,NULL,83,NULL,NULL,NULL,NULL,NULL,NULL,NULL,NULL,NULL,NULL,NULL,5,NULL,529.14.536.00,27624,532.51.28.98,57094,NULL,2021-04-13 12:26:00,2021-04-13T08:26:53,1,EST,NULL,2021-04-13 08:29:00,1618302573,America/New_York,13,2,12,4,2021,True,NULL,1,NULL,NULL,15267683,NULL,NULL,NULL,NULL,Packet Loss lower than 1%
2021-08-25 09:45:00,886000000000,54.590.05.60,NULL,nuvia.com,WIWQ_Xvyrow/0,priv_level3,WIWQ_Xvyrow,0,000:00:29,29.38699913,29,00:29:33.8,NULL,NULL,NULL,ack-rx#na,0,NULL,000:00:13,229,source,529.14.536.01,NULL,IQIE_Xvyro/0,5060,trunk2,IQIE_Xvyro,0,IV,1,885000000000,NULL,885000000000,NULL,885000000000,Subscriber,NULL,054391-7000876213-054976@iqie45-w7w46w5.kirferh.gsq,NULL,Subscriber,end1,NULL,NULL,NULL,Q20,unknown,unknown,g729,g729,NULL,NULL,37080,5,NULL,529.14.536.00,18582,536.03.680.98,44968,pizip7yo_mrkviww,NULL,Q20_sim,N,NULL,NULL,NULL,NULL,NULL,NULL,NULL,NULL,NULL,NULL,NULL,msx_sim_1_2021_04_13_12.CDT,886000000000,NULL,NULL,1,NULL,NULL,NULL,2021-04-13T08:29:24,NULL,NULL,4.132171154,NULL,NULL,16,NormalCallClearing,NULL,NULL,0,NULL,NULL,NULL,NULL,13,2,8,4,NULL,2021,0,AD,AD,msx_sim_1,886000000000,886000000000,NULL,885000000000,NULL,NULL,NULL,NULL,NULL,16,NormalCallClearing,NULL,NULL,NULL,NULL,0,NULL,0,NULL,1854,NULL,NULL,0,sip,Draft01,sip,NULL,885000000000,NULL,83,NULL,NULL,NULL,NULL,NULL,NULL,NULL,NULL,NULL,NULL,NULL,5,NULL,529.14.536.00,18574,532.51.28.98,40816,NULL,2021-04-13 12:29:00,2021-04-13T08:29:04,1,EST,NULL,2021-04-13 08:29:00,1618302573,America/New_York,13,2,12,4,2021,True,NULL,1,NULL,NULL,15666400,NULL,NULL,NULL,NULL,Packet Loss lower than 1%
2021-08-25 09:46:00,881000000000,54.590.05.60,NULL,nuvia.com,WIWQ_Xvyrow/0,priv_level3,WIWQ_Xvyrow,0,000:36:13,2172.917969,2173,00:29:33.1,NULL,NULL,NULL,ack-rx#na,0,NULL,000:00:01,135,source,529.14.536.01,NULL,IQIE_Xvyro/0,5060,trunk2,IQIE_Xvyro,0,IV,1,885000000000,NULL,885000000000,NULL,885000000000,Subscriber,NULL,983153-7000434170-312488@iqie45-w7w46w5.kirferh.gsq,NULL,Subscriber,end1,NULL,NULL,NULL,Q20,g711ulaw,g711ulaw,g711ulaw,g711ulaw,NULL,17367728,17382592,5,NULL,54.590.05.77,31996,536.03.680.98,38402,pizip7yo_mrkviww,NULL,Q20_sim,N,NULL,NULL,NULL,NULL,NULL,NULL,NULL,4.198124886,NULL,NULL,NULL,msx_sim_1_2021_04_13_12.CDT,881000000000,NULL,NULL,1,NULL,NULL,NULL,2021-04-13T08:29:24,NULL,NULL,4.405381203,NULL,NULL,16,NormalCallClearing,NULL,NULL,0,NULL,NULL,NULL,NULL,13,2,8,4,NULL,2021,0,AD,AD,msx_sim_1,881000000000,881000000000,NULL,885000000000,NULL,NULL,NULL,NULL,NULL,16,NormalCallClearing,NULL,NULL,NULL,2224,0,2236,0,106530,108883,NULL,0,0,sip,Draft01,sip,NULL,885000000000,85,93,NULL,NULL,NULL,NULL,NULL,NULL,NULL,NULL,NULL,NULL,NULL,5,NULL,529.14.536.00,38156,532.51.28.98,43388,NULL,2021-04-13 11:53:00,2021-04-13T07:53:20,1,EST,NULL,2021-04-13 08:29:00,1618302573,America/New_York,13,2,12,4,2021,True,NULL,1,NULL,NULL,15285871,NULL,NULL,NULL,NULL,Packet Loss greater than 1%
2021-08-25 09:50:00,NULL,72.574.553.71,NULL,NULL,XipskmowGyfi6/1,trunk,XipskmowGyfi6,1,000:00:00,0,0,00:29:33.9,Internal Error-Internal SBC Error,NULL,NULL,na#100-rx,5500,NULL,000:00:02,2000,destination,NULL,nuvia.com,NULL,0,priv_trunk139,NULL,NULL,IV,1,3330000000000,NULL,NULL,NULL,3330000000000,Subscriber,TELOGIKS,52680999-7004106667-62619@w7w46.ryzme.kirferh.gsq,NULL,Subscriber,hunt,NULL,NULL,NULL,Q20,unknown,unknown,NULL,NULL,NULL,NULL,NULL,5,NULL,NULL,NULL,532.51.28.98,50076,gyfi_syxfsyrh,NULL,Q20_sim,E,NULL,NULL,NULL,NULL,NULL,NULL,0eb507402558bc44053c587f1301a1e1c44767fd6@10.156.61.26,NULL,NULL,NULL,NULL,msx_sim_1_2021_04_13_12.CDT,1041161616,NULL,NULL,1,NULL,NULL,NULL,2021-04-13T08:29:24,NULL,NULL,NULL,NULL,NULL,NULL,NULL,NULL,NULL,0,NULL,NULL,NULL,NULL,13,2,8,4,NULL,2021,0,AD,AD,msx_sim_1,1041161616,1041161616,1041161616,3330000000000,NULL,NULL,NULL,NULL,NULL,41,TemporaryFailure,NULL,NULL,NULL,NULL,NULL,NULL,NULL,NULL,NULL,1041161616,NULL,NULL,sip,NULL,sip,NULL,3330000000000,NULL,NULL,NULL,NULL,NULL,NULL,NULL,NULL,500,Internal Server Error,NULL,NULL,NULL,5,NULL,536.03.680.98,NULL,NULL,NULL,NULL,2021-04-13 12:29:00,2021-04-13T08:29:33,1,EST,NULL,2021-04-13 08:29:00,1618302573,America/New_York,13,2,12,4,2021,True,NULL,1,NULL,NULL,12634859,NULL,NULL,NULL,NULL,Not applicable
2021-08-25 10:03:00,881000000000,54.590.05.60,NULL,nuvia.com,WIWQ_Xvyrow/0,priv_level3,WIWQ_Xvyrow,0,000:07:39,459.0360107,459,00:29:33.3,NULL,NULL,NULL,ack-tx#na,0,NULL,000:00:02,119,source,529.14.536.01,NULL,IQIE_Xvyro/0,5060,trunk2,IQIE_Xvyro,0,IV,1,885000000000,NULL,885000000000,NULL,885000000000,Subscriber,NULL,954763-7009361005-103660@iqie45-w7w46w5.kirferh.gsq,NULL,Subscriber,end1,NULL,NULL,NULL,Q20,g711ulaw,g711ulaw,g711ulaw,g711ulaw,NULL,3685080,3671436,5,NULL,54.590.05.78,32232,536.03.680.98,41544,pizip7yo_mrkviww,NULL,Q20_sim,N,NULL,NULL,NULL,NULL,NULL,NULL,NULL,4.258759022,NULL,NULL,NULL,msx_sim_1_2021_04_13_12.CDT,881000000000,NULL,NULL,1,NULL,NULL,NULL,2021-04-13T08:29:24,NULL,NULL,4.405381203,NULL,NULL,16,NormalCallClearing,NULL,NULL,0,NULL,NULL,NULL,NULL,13,2,8,4,NULL,2021,0,AD,AD,msx_sim_1,881000000000,881000000000,NULL,885000000000,NULL,NULL,NULL,NULL,NULL,16,NormalCallClearing,NULL,NULL,NULL,225,0,226,0,22804,23199,NULL,1125,0,sip,Draft01,sip,NULL,885000000000,87,93,NULL,NULL,NULL,NULL,NULL,NULL,NULL,NULL,NULL,NULL,NULL,5,NULL,529.14.536.00,33730,532.51.28.98,46994,NULL,2021-04-13 12:21:00,2021-04-13T08:21:54,1,EST,NULL,2021-04-13 08:29:00,1618302573,America/New_York,13,2,12,4,2021,True,NULL,1,NULL,NULL,15040489,NULL,NULL,NULL,NULL,Packet Loss lower than 1%
2021-08-25 10:30:00,4567890,54.590.05.60,NULL,nuvia.com,WIWQ_Xvyrow/0,priv_level3,WIWQ_Xvyrow,0,000:01:26,85.60500336,86,00:29:33.6,NULL,NULL,NULL,ack-rx#na,0,NULL,000:00:16,1241,destination,529.14.536.01,NULL,IQIE_Xvyro/0,5060,trunk2,IQIE_Xvyro,0,IV,1,885000000000,NULL,885000000000,NULL,885000000000,Subscriber,NULL,921531-7005696049-798274@iqie45-w7w46w5.kirferh.gsq,NULL,Subscriber,end1,NULL,NULL,NULL,Q20,unknown,unknown,g729,g729,NULL,NULL,85380,5,NULL,5.664.2.56,50002,536.03.680.98,39492,pizip7yo_mrkviww,NULL,Q20_sim,N,NULL,NULL,NULL,NULL,NULL,NULL,NULL,NULL,NULL,NULL,NULL,msx_sim_1_2021_04_13_12.CDT,4567890,NULL,NULL,1,NULL,NULL,NULL,2021-04-13T08:29:24,NULL,NULL,4.132171154,NULL,NULL,16,NormalCallClearing,NULL,NULL,0,NULL,NULL,NULL,NULL,13,2,8,4,NULL,2021,0,AD,AD,msx_sim_1,4567890,4567890,NULL,885000000000,NULL,NULL,NULL,NULL,NULL,16,NormalCallClearing,NULL,NULL,NULL,NULL,0,NULL,0,NULL,4269,NULL,NULL,0,sip,Draft01,sip,NULL,885000000000,NULL,83,NULL,NULL,NULL,NULL,NULL,NULL,NULL,NULL,NULL,NULL,NULL,5,NULL,529.14.536.00,18414,532.51.28.98,48064,NULL,2021-04-13 12:28:00,2021-04-13T08:28:07,1,EST,NULL,2021-04-13 08:29:00,1618302573,America/New_York,13,2,12,4,2021,True,NULL,1,NULL,NULL,14481546,NULL,NULL,NULL,NULL,Packet Loss lower than 1%
2021-08-25 10:35:00,hppsCh,54.590.05.60,NULL,NULL,WIWQ5/19,priv_domain2,WIWQ5,19,000:00:37,37.21900177,37,00:29:33.3,NULL,Proxy Authentication Required,5407,ack-rx#100-rx,0,NULL,000:00:01,350,source,529.14.536.99,NULL,hCreqmg-7009372798.542495.447/9,5060,pub2_access,hCreqmg-7009372798.542495.447,9,IV,NULL,772,NULL,772,NULL,772,Subscriber,NULL,12585381-7000038742-199439@iqie45-w7w45w5.kirferh.gsq,NULL,Subscriber,end1,NULL,NULL,NULL,Q20,"g711ulaw,unknown",g711ulaw,"g711ulaw, unknown",g711ulaw,NULL,298028,271240,NULL,NULL,54.590.05.77,"21158, 0",536.03.680.98,29558,NULL,NULL,Q20_sim,N,NULL,NULL,NULL,NULL,NULL,NULL,NULL,4.313736916,NULL,NULL,NULL,msx_sim_1_2021_04_13_12.CDT,hppsCh,NULL,NULL,0,NULL,NULL,NULL,2021-04-13T08:29:24,NULL,NULL,4.061233044,NULL,NULL,16,NormalCallClearing,150,150,0,NULL,NULL,NULL,NULL,13,2,8,4,NULL,2021,0,"AD,VD","AD,VD",msx_sim_1,hppsCh,hppsCh,NULL,772,NULL,NULL,NULL,NULL,NULL,21,CallRejected,NULL,NULL,NULL,8,31,8,31,1858,1840,NULL,0,2000,sip,No,sip,NULL,772,89,81,NULL,NULL,NULL,NULL,NULL,NULL,407,Proxy Authentication Required,NULL,Proxy Authentication Required,NULL,NULL,NULL,"529.14.536.98, 529.14.536.98","22600, 22604","532.51.28.98, 532.51.28.98","44372, 44374",NULL,2021-04-13 12:28:00,2021-04-13T08:28:56,1,EST,NULL,2021-04-13 08:29:00,1618302573,America/New_York,13,2,12,4,2021,True,NULL,2,NULL,NULL,16128992,NULL,NULL,NULL,NULL,Packet Loss greater than 1%
2021-08-25 10:50:00,881000000000,54.590.05.60,NULL,nuvia.com,WIWQ_Xvyrow/0,priv_level3,WIWQ_Xvyrow,0,000:05:23,323.0740051,323,00:29:33.3,NULL,NULL,NULL,ack-tx#na,0,NULL,000:00:02,13,source,529.14.536.01,NULL,IQIE_Xvyro/0,5060,trunk2,IQIE_Xvyro,0,IV,1,885000000000,NULL,885000000000,NULL,885000000000,Subscriber,NULL,74795-7006244514-591988@iqie45-w7w46w5.kirferh.gsq,NULL,Subscriber,end1,NULL,NULL,NULL,Q20,g711ulaw,g711ulaw,g711ulaw,g711ulaw,NULL,2583452,2584696,5,NULL,54.590.05.77,31488,536.03.680.98,40404,pizip7yo_mrkviww,NULL,Q20_sim,N,NULL,NULL,NULL,NULL,NULL,NULL,NULL,4.286975861,NULL,NULL,NULL,msx_sim_1_2021_04_13_12.CDT,881000000000,NULL,NULL,1,NULL,NULL,NULL,2021-04-13T08:29:24,NULL,NULL,4.405381203,NULL,NULL,16,NormalCallClearing,NULL,NULL,0,NULL,NULL,NULL,NULL,13,2,8,4,NULL,2021,0,AD,AD,msx_sim_1,881000000000,881000000000,NULL,885000000000,NULL,NULL,NULL,NULL,NULL,16,NormalCallClearing,NULL,NULL,NULL,161,0,162,0,16016,16597,NULL,0,0,sip,Draft01,sip,NULL,885000000000,88,93,NULL,NULL,NULL,NULL,NULL,NULL,NULL,NULL,NULL,NULL,NULL,5,NULL,529.14.536.00,60926,532.51.28.98,44598,NULL,2021-04-13 12:24:00,2021-04-13T08:24:10,1,EST,NULL,2021-04-13 08:29:00,1618302573,America/New_York,13,2,12,4,2021,True,NULL,1,NULL,NULL,16312791,NULL,NULL,NULL,NULL,Packet Loss greater than 1%
2021-08-25 10:55:00,NULL,8.99.16.77,NULL,NULL,Pizip7_77/1,trunk,Pizip7_77,1,000:00:00,0,0,00:29:33.1,Busy Here,NULL,NULL,na#100-rx,1,NULL,000:00:01,1000,destination,NULL,nuvia.com,NULL,0,priv_level3,NULL,NULL,IV,1,51097833901,NULL,NULL,NULL,51097833901,Subscriber,S3L3SAGENET,51239699-7004184914-600549@w7w46.ryzme.kirferh.gsq,NULL,Subscriber,hunt,NULL,NULL,NULL,Q20,unknown,unknown,NULL,NULL,NULL,NULL,NULL,5,NULL,NULL,NULL,532.51.28.98,47092,p7_wekirix_syxfsyrh,NULL,Q20_sim,B,NULL,NULL,NULL,US,37.75099945,-97.8219986,dc6f52302598cce1223c587f1f0946fd2bbee6513@10.156.61.26,NULL,8.96.0.0,11,NULL,msx_sim_1_2021_04_13_12.CDT,1097965349,NULL,NULL,1,NULL,NULL,NULL,2021-04-13T08:29:24,NULL,NULL,NULL,NULL,NULL,NULL,NULL,NULL,NULL,0,NULL,NULL,NULL,NULL,13,2,8,4,NULL,2021,0,AD,AD,msx_sim_1,1097965349,1097965349,1097965349,51097833901,NULL,NULL,NULL,NULL,NULL,17,UserBusy,NULL,NULL,NULL,NULL,NULL,NULL,NULL,NULL,NULL,1097965349,NULL,NULL,sip,NULL,sip,NULL,51097833901,NULL,NULL,NULL,NULL,NULL,NULL,NULL,NULL,600,Busy Everywhere,NULL,NULL,NULL,5,NULL,536.03.680.98,NULL,NULL,NULL,NULL,2021-04-13 12:29:00,2021-04-13T08:29:33,1,EST,NULL,2021-04-13 08:29:00,1618302573,America/New_York,13,2,12,4,2021,True,NULL,1,NULL,NULL,12612948,NULL,NULL,NULL,NULL,Not applicable
2021-08-25 11:04:00,Viwxvmgxih,54.590.05.60,NULL,nuvia.com,WIWQ_Xvyrow/0,priv_level3,WIWQ_Xvyrow,0,000:03:37,216.8710022,217,00:29:33.4,NULL,NULL,NULL,ack-tx#na,0,NULL,000:00:02,133,destination,529.14.536.01,NULL,IQIE_Xvyro/0,5060,trunk2,IQIE_Xvyro,0,IV,1,885000000000,NULL,885000000000,NULL,885000000000,Subscriber,NULL,135447-7001563405-673444@iqie45-w7w46w5.kirferh.gsq,NULL,Subscriber,end1,NULL,NULL,NULL,Q20,g711ulaw,g711ulaw,g711ulaw,g711ulaw,NULL,1741528,1735264,5,NULL,54.590.05.78,31864,536.03.680.98,30206,pizip7yo_mrkviww,NULL,Q20_sim,N,NULL,NULL,NULL,NULL,NULL,NULL,NULL,4.258759022,NULL,NULL,NULL,msx_sim_1_2021_04_13_12.CDT,Viwxvmgxih,NULL,NULL,1,NULL,NULL,NULL,2021-04-13T08:29:24,NULL,NULL,4.405381203,NULL,NULL,16,NormalCallClearing,NULL,NULL,0,NULL,NULL,NULL,NULL,13,2,8,4,NULL,2021,0,AD,AD,msx_sim_1,Viwxvmgxih,Viwxvmgxih,NULL,885000000000,NULL,NULL,NULL,NULL,NULL,16,NormalCallClearing,NULL,NULL,NULL,116,0,117,0,10745,10939,NULL,0,0,sip,No,sip,NULL,885000000000,87,93,NULL,NULL,NULL,NULL,NULL,NULL,NULL,NULL,NULL,NULL,NULL,5,NULL,529.14.536.00,65040,532.51.28.98,52330,NULL,2021-04-13 12:25:00,2021-04-13T08:25:56,1,EDT,NULL,2021-04-13 08:29:00,1618302573,America/New_York,13,2,12,4,2021,True,NULL,1,NULL,NULL,16741678,NULL,NULL,NULL,NULL,Packet Loss greater than 1%
2021-08-25 11:10:00,vyhmixps,54.590.05.60,NULL,NULL,WIWQ5/19,priv_domain2,WIWQ5,19,000:22:45,1364.694946,1365,00:29:33.5,NULL,Proxy Authentication Required,5407,ack-tx#100-rx,0,NULL,000:00:01,203,source,529.14.536.99,NULL,hCreqmg-7001776396.455780.658/2,5060,pub2_access,hCreqmg-7001776396.455780.658,2,IV,NULL,772,NULL,772,NULL,772,Subscriber,NULL,565214870-7001973819-124553@iqie45-w7w45w5.kirferh.gsq,NULL,Subscriber,end1,NULL,NULL,NULL,Q20,"g711ulaw,H263",g711ulaw,"g711ulaw, H263",g711ulaw,NULL,10933084,10909096,NULL,NULL,"54.590.05.77, 54.590.05.77","31216, 31132","536.03.680.98, 536.03.680.98","46964, 46966",NULL,NULL,Q20_sim,N,NULL,NULL,NULL,NULL,NULL,NULL,NULL,4.258759022,NULL,NULL,NULL,msx_sim_1_2021_04_13_12.CDT,vyhmixps,NULL,NULL,0,NULL,NULL,NULL,2021-04-13T08:29:24,NULL,NULL,4.165791988,NULL,NULL,16,NormalCallClearing,98,98,0,NULL,NULL,NULL,NULL,13,2,8,4,NULL,2021,0,"AD,VD","AD,VD",msx_sim_1,vyhmixps,vyhmixps,NULL,772,NULL,NULL,NULL,NULL,NULL,21,CallRejected,NULL,NULL,NULL,545,838,546,838,67916,67648,NULL,0,875,sip,No,sip,NULL,772,87,84,NULL,NULL,NULL,NULL,NULL,NULL,407,Proxy Authentication Required,NULL,Proxy Authentication Required,NULL,NULL,NULL,"529.14.536.98, 529.14.536.98","43176, 43180","532.51.28.98, 532.51.28.98","45070, 45072",NULL,2021-04-13 12:06:00,2021-04-13T08:06:48,1,EDT,NULL,2021-04-13 08:29:00,1618302573,America/New_York,13,2,12,4,2021,True,NULL,2,NULL,NULL,17320188,NULL,NULL,NULL,NULL,Packet Loss greater than 1%
2021-08-25 11:16:00,881000000000,54.590.05.60,NULL,nuvia.com,WIWQ_Xvyrow/0,priv_level3,WIWQ_Xvyrow,0,000:00:58,57.61299896,58,00:29:33.5,NULL,NULL,NULL,ack-tx#na,0,NULL,000:00:02,181,source,529.14.536.01,NULL,IQIE_Xvyro/0,5060,trunk2,IQIE_Xvyro,0,IV,1,885000000000,NULL,885000000000,NULL,885000000000,Subscriber,NULL,54030-7006148238-81399@iqie45-w7w46w5.kirferh.gsq,NULL,Subscriber,end1,NULL,NULL,NULL,Q20,g711ulaw,g711ulaw,g711ulaw,g711ulaw,NULL,458680,460200,5,NULL,54.590.05.77,31500,536.03.680.98,32326,pizip7yo_mrkviww,NULL,Q20_sim,N,NULL,NULL,NULL,NULL,NULL,NULL,NULL,4.286975861,NULL,NULL,NULL,msx_sim_1_2021_04_13_12.CDT,881000000000,NULL,NULL,1,NULL,NULL,NULL,2021-04-13T08:29:24,NULL,NULL,4.405381203,NULL,NULL,16,NormalCallClearing,NULL,NULL,0,NULL,NULL,NULL,NULL,13,2,8,4,NULL,2021,0,AD,AD,msx_sim_1,881000000000,881000000000,NULL,885000000000,NULL,NULL,NULL,NULL,NULL,16,NormalCallClearing,NULL,NULL,NULL,20,0,21,0,2852,3159,NULL,0,0,sip,Draft01,sip,NULL,885000000000,88,93,NULL,NULL,NULL,NULL,NULL,NULL,NULL,NULL,NULL,NULL,NULL,5,NULL,529.14.536.00,25766,532.51.28.98,48828,NULL,2021-04-13 12:28:00,2021-04-13T08:28:35,1,EST,NULL,2021-04-13 08:29:00,1618302573,America/New_York,13,2,12,4,2021,True,NULL,1,NULL,NULL,16165944,NULL,NULL,NULL,NULL,Packet Loss lower than 1%
2021-08-25 11:24:00,888000000000,54.590.05.60,NULL,nuvia.com,WIWQ_Xvyrow/0,priv_level3,WIWQ_Xvyrow,0,001:11:25,4284.544922,4285,00:29:33,NULL,NULL,NULL,ack-rx#na,0,NULL,000:00:00,225,source,529.14.536.01,NULL,IQIE_Xvyro/0,5060,trunk2,IQIE_Xvyro,0,IV,1,885000000000,NULL,885000000000,NULL,885000000000,Subscriber,NULL,049089-7000867038-771890@iqie45-w7w46w5.kirferh.gsq,NULL,Subscriber,end1,NULL,NULL,NULL,Q20,g711ulaw,g711ulaw,g711ulaw,g711ulaw,NULL,34550952,34273972,5,NULL,54.590.05.670,55476,536.03.680.98,35764,pizip7yo_mrkviww,NULL,Q20_sim,N,NULL,NULL,NULL,NULL,NULL,NULL,NULL,4.405381203,NULL,NULL,NULL,msx_sim_1_2021_04_13_12.CDT,888000000000,NULL,NULL,1,NULL,NULL,NULL,2021-04-13T08:29:24,NULL,NULL,4.405381203,NULL,NULL,16,NormalCallClearing,NULL,NULL,0,NULL,NULL,NULL,NULL,13,2,8,4,NULL,2021,0,AD,AD,msx_sim_1,888000000000,888000000000,NULL,885000000000,NULL,NULL,NULL,NULL,NULL,16,NormalCallClearing,NULL,NULL,NULL,22,0,22,10,218495,214459,NULL,0,0,sip,Draft01,sip,NULL,885000000000,93,93,NULL,NULL,NULL,NULL,NULL,NULL,NULL,NULL,NULL,NULL,NULL,5,NULL,529.14.536.00,64126,532.51.28.98,48668,NULL,2021-04-13 11:18:00,2021-04-13T07:18:08,1,EST,NULL,2021-04-13 08:29:00,1618302573,America/New_York,13,2,12,4,2021,True,NULL,1,NULL,NULL,15661955,NULL,NULL,NULL,NULL,Packet Loss lower than 1%
2021-08-25 11:34:00,oimxlgsrj,54.590.05.60,NULL,NULL,WIWQ5/19,priv_domain2,WIWQ5,19,000:00:00,0,0,00:29:33.4,Request Terminated-Call Abandoned,Request Terminated-Call Abandoned,2,18x-tx#18x-rx,2,NULL,000:00:11,2550,source,516.50.6.54,NULL,hCreqmg-7005055027.313808.494/7,5060,pub2_access,hCreqmg-7005055027.313808.494,7,IV,NULL,3163236889,NULL,3163236889,NULL,3163236889,Subscriber,NULL,6928g64-4-57g8-542f20-5012f77e-542f20@kirferh.gsq,NULL,Subscriber,end1,NULL,NULL,NULL,Q20,unknown,unknown,g711ulaw,g711ulaw,NULL,NULL,68960,NULL,NULL,08.38.549.594,25986,536.03.680.98,47460,NULL,NULL,Q20_sim,A,NULL,NULL,NULL,NULL,NULL,NULL,NULL,NULL,NULL,NULL,NULL,msx_sim_1_2021_04_13_12.CDT,oimxlgsrj,NULL,NULL,0,NULL,NULL,NULL,2021-04-13T08:29:24,NULL,NULL,4.405381203,NULL,NULL,16,NormalCallClearing,NULL,NULL,0,NULL,NULL,NULL,NULL,13,2,8,4,NULL,2021,0,AD,AD,msx_sim_1,oimxlgsrj,oimxlgsrj,NULL,3163236889,NULL,NULL,NULL,NULL,NULL,16,NormalCallClearing,NULL,NULL,NULL,NULL,0,NULL,0,NULL,431,NULL,NULL,0,sip,No,sip,NULL,3163236889,NULL,93,NULL,NULL,NULL,NULL,NULL,NULL,487,Request Terminated,487,Request Terminated,NULL,NULL,NULL,516.50.6.54,10000,532.51.28.98,57770,NULL,2021-04-13 12:29:00,2021-04-13T08:29:33,1,EST,NULL,2021-04-13 08:29:00,1618302573,America/New_York,13,2,12,4,2021,True,NULL,1,NULL,NULL,13147358,NULL,NULL,NULL,NULL,Packet Loss lower than 1%
2021-08-25 12:07:00,Viwxvmgxih,54.590.05.60,NULL,nuvia.com,WIWQ_Xvyrow/0,priv_level3,WIWQ_Xvyrow,0,000:26:33,1592.71106,1593,00:29:33.5,NULL,NULL,NULL,ack-tx#na,0,NULL,000:00:01,119,source,529.14.536.01,NULL,IQIE_Xvyro/0,5060,trunk2,IQIE_Xvyro,0,IV,1,885000000000,NULL,885000000000,NULL,885000000000,Subscriber,NULL,158668-7006638246-967435@iqie45-w7w46w5.kirferh.gsq,NULL,Subscriber,end1,NULL,NULL,NULL,Q20,g711ulaw,g711ulaw,g711ulaw,g711ulaw,NULL,12758868,12740192,5,NULL,54.590.05.78,31540,536.03.680.98,43468,pizip7yo_mrkviww,NULL,Q20_sim,N,NULL,NULL,NULL,NULL,NULL,NULL,NULL,4.229127884,NULL,NULL,NULL,msx_sim_1_2021_04_13_12.CDT,Viwxvmgxih,NULL,NULL,1,NULL,NULL,NULL,2021-04-13T08:29:24,NULL,NULL,4.405381203,NULL,NULL,16,NormalCallClearing,NULL,NULL,0,NULL,NULL,NULL,NULL,13,2,8,4,NULL,2021,0,AD,AD,msx_sim_1,Viwxvmgxih,Viwxvmgxih,NULL,885000000000,NULL,NULL,NULL,NULL,NULL,16,NormalCallClearing,NULL,NULL,NULL,1064,0,1066,0,78784,79712,NULL,0,0,sip,No,sip,NULL,885000000000,86,93,NULL,NULL,NULL,NULL,NULL,NULL,NULL,NULL,NULL,NULL,NULL,5,NULL,529.14.536.00,18812,532.51.28.98,54236,NULL,2021-04-13 12:03:00,2021-04-13T08:03:00,1,EST,NULL,2021-04-13 08:29:00,1618302573,America/New_York,13,2,12,4,2021,True,NULL,1,NULL,NULL,15644219,NULL,NULL,NULL,NULL,Packet Loss greater than 1%
2021-08-25 12:13:00,sxxgsrj_hezmrgm,54.590.05.60,NULL,NULL,WIWQ5/19,priv_domain2,WIWQ5,19,000:18:09,1088.828979,1089,00:29:33.5,NULL,Proxy Authentication Required,5407,ack-tx#100-rx,0,NULL,000:00:02,135,source,516.62.7.545,NULL,hCreqmg-7099307727.024886.523/7,5060,pub2_access,hCreqmg-7099307727.024886.523,7,IV,NULL,772,NULL,772,NULL,772,Subscriber,NULL,67je384-4-57g8-8402g5-0j7fg1g5-8402g5@kirferh.gsq,NULL,Subscriber,end1,NULL,NULL,NULL,Q20,"g711ulaw,unknown",g711ulaw,"g711ulaw, unknown",g711ulaw,NULL,8679840,8677364,NULL,NULL,"54.590.05.77, 54.590.05.77","32052, 31232","536.03.680.98, 536.03.680.98","49936, 20044",NULL,NULL,Q20_sim,N,NULL,NULL,NULL,NULL,NULL,NULL,NULL,4.258759022,NULL,NULL,NULL,msx_sim_1_2021_04_13_12.CDT,sxxgsrj_hezmrgm,NULL,NULL,0,NULL,NULL,NULL,2021-04-13T08:29:24,NULL,NULL,4.405381203,NULL,NULL,16,NormalCallClearing,NULL,NULL,0,NULL,NULL,NULL,NULL,13,2,8,4,NULL,2021,0,"AD,VD","AD,VD",msx_sim_1,sxxgsrj_hezmrgm,sxxgsrj_hezmrgm,NULL,772,NULL,NULL,NULL,NULL,NULL,21,CallRejected,NULL,NULL,NULL,716,0,717,0,53527,54448,NULL,1625,0,sip,No,sip,NULL,772,87,93,NULL,NULL,NULL,NULL,NULL,NULL,407,Proxy Authentication Required,NULL,Proxy Authentication Required,NULL,NULL,NULL,516.62.7.545,"10000, 0",532.51.28.98,55226,NULL,2021-04-13 12:11:00,2021-04-13T08:11:24,1,EST,NULL,2021-04-13 08:29:00,1618302573,America/New_York,13,2,12,4,2021,True,NULL,2,NULL,NULL,14736605,NULL,NULL,NULL,NULL,Packet Loss greater than 1%
2021-08-25 17:23:00,80146734938,54.590.05.60,NULL,nuvia.com,WIWQ_Xvyrow/0,priv_level3,WIWQ_Xvyrow,0,000:00:05,4.863999844,5,00:29:33.6,NULL,NULL,NULL,ack-rx#na,0,NULL,000:00:02,123,source,529.14.536.01,NULL,IQIE_Xvyro/0,5060,trunk2,IQIE_Xvyro,0,IV,1,885000000000,NULL,885000000000,NULL,885000000000,Subscriber,NULL,053993-7005931932-280298@iqie45-w7w46w5.kirferh.gsq,NULL,Subscriber,end1,NULL,NULL,NULL,Q20,g711ulaw,g711ulaw,g711ulaw,g711ulaw,NULL,38720,37120,5,NULL,54.590.05.77,21056,536.03.680.98,47012,pizip7yo_mrkviww,NULL,Q20_sim,N,NULL,NULL,NULL,NULL,NULL,NULL,NULL,4.405381203,NULL,NULL,NULL,msx_sim_1_2021_04_13_12.CDT,80146734938,NULL,NULL,1,NULL,NULL,NULL,2021-04-13T08:29:24,NULL,NULL,4.405381203,NULL,NULL,16,NormalCallClearing,NULL,NULL,0,NULL,NULL,NULL,NULL,13,2,8,4,NULL,2021,0,AD,AD,msx_sim_1,80146734938,80146734938,NULL,885000000000,NULL,NULL,NULL,NULL,NULL,16,NormalCallClearing,NULL,NULL,NULL,0,0,0,0,242,232,NULL,10875,0,sip,Draft01,sip,NULL,885000000000,93,93,NULL,NULL,NULL,NULL,NULL,NULL,NULL,NULL,NULL,NULL,NULL,5,NULL,529.14.536.00,22810,532.51.28.98,55790,NULL,2021-04-13 12:29:00,2021-04-13T08:29:28,1,EST,NULL,2021-04-13 08:29:00,1618302573,America/New_York,13,2,12,4,2021,True,NULL,1,NULL,NULL,14807493,NULL,NULL,NULL,NULL,Packet Loss lower than 1%
2021-08-25 17:45:00,886000000000,54.590.05.60,NULL,nuvia.com,WIWQ_Xvyrow/0,priv_level3,WIWQ_Xvyrow,0,000:05:56,356.2449951,356,00:29:34,NULL,NULL,NULL,ack-tx#na,0,NULL,000:00:02,119,source,529.14.536.01,NULL,IQIE_Xvyro/0,5060,trunk2,IQIE_Xvyro,0,IV,1,885000000000,NULL,885000000000,NULL,885000000000,Subscriber,NULL,058227-7005928930-359487@iqie45-w7w46w5.kirferh.gsq,NULL,Subscriber,end1,NULL,NULL,NULL,Q20,g711ulaw,g711ulaw,g711ulaw,g711ulaw,NULL,2855004,2848896,5,NULL,54.590.05.77,31144,536.03.680.98,30896,pizip7yo_mrkviww,NULL,Q20_sim,N,NULL,NULL,NULL,NULL,NULL,NULL,NULL,4.286975861,NULL,NULL,NULL,msx_sim_1_2021_04_13_12.CDT,886000000000,NULL,NULL,1,NULL,NULL,NULL,2021-04-13T08:29:24,NULL,NULL,4.405381203,NULL,NULL,16,NormalCallClearing,NULL,NULL,0,NULL,NULL,NULL,NULL,13,2,8,4,NULL,2021,0,AD,AD,msx_sim_1,886000000000,886000000000,NULL,885000000000,NULL,NULL,NULL,NULL,NULL,16,NormalCallClearing,NULL,NULL,NULL,123,0,124,0,17755,17985,NULL,0,0,sip,Draft01,sip,NULL,885000000000,88,93,NULL,NULL,NULL,NULL,NULL,NULL,NULL,NULL,NULL,NULL,NULL,5,NULL,529.14.536.00,13770,532.51.28.98,53934,NULL,2021-04-13 12:23:00,2021-04-13T08:23:37,1,EST,NULL,2021-04-13 08:29:00,1618302573,America/New_York,13,2,12,4,2021,True,NULL,1,NULL,NULL,14796117,NULL,NULL,NULL,NULL,Packet Loss lower than 1%
2021-08-25 19:50:00,vyhmixps,54.590.05.60,NULL,NULL,WIWQ5/19,priv_domain2,WIWQ5,19,000:05:11,311.0230103,311,00:29:33.3,NULL,Proxy Authentication Required,5407,ack-rx#100-rx,0,NULL,000:00:11,1102,source,529.14.536.99,NULL,hCreqmg-7001776396.455780.658/2,5060,pub2_access,hCreqmg-7001776396.455780.658,2,IV,NULL,eDsykp,NULL,eDsykp,NULL,eDsykp,Subscriber,NULL,566562862-7001988177-294832@iqie45-w7w45w5.kirferh.gsq,NULL,Subscriber,end1,NULL,NULL,NULL,Q20,"g711ulaw,unknown",g711ulaw,"g711ulaw, unknown",g711ulaw,NULL,2492872,2489916,NULL,NULL,536.03.680.90,"46800, 0",536.03.680.98,49568,NULL,NULL,Q20_sim,N,NULL,NULL,NULL,NULL,NULL,NULL,NULL,4.313736916,NULL,NULL,NULL,msx_sim_1_2021_04_13_12.CDT,vyhmixps,NULL,NULL,0,NULL,NULL,NULL,2021-04-13T08:29:24,NULL,NULL,4.061233044,NULL,NULL,16,NormalCallClearing,165,165,0,NULL,NULL,NULL,NULL,13,2,8,4,NULL,2021,0,"AD,VD","AD,VD",msx_sim_1,vyhmixps,vyhmixps,NULL,eDsykp,NULL,NULL,NULL,NULL,NULL,21,CallRejected,NULL,NULL,NULL,85,228,85,228,15528,15367,NULL,1375,625,sip,No,sip,NULL,eDsykp,89,81,NULL,NULL,NULL,NULL,NULL,NULL,407,Proxy Authentication Required,NULL,Proxy Authentication Required,NULL,NULL,NULL,"529.14.536.98, 529.14.536.98","54384, 54388","532.51.28.98, 532.51.28.98","48176, 48178",NULL,2021-04-13 12:24:00,2021-04-13T08:24:22,1,EDT,NULL,2021-04-13 08:29:00,1618302573,America/New_York,13,2,12,4,2021,True,NULL,2,NULL,NULL,17321598,NULL,NULL,NULL,NULL,Packet Loss greater than 1%
2021-08-25 19:58:00,vyhmixps,54.590.05.60,NULL,NULL,WIWQ5/19,priv_domain2,WIWQ5,19,000:00:12,12.13799953,12,00:29:33.4,NULL,NULL,NULL,ack-rx#na,0,NULL,000:00:16,479,destination,529.14.536.99,NULL,hCreqmg-7009372798.542495.447/2,5060,pub2_access,hCreqmg-7009372798.542495.447,2,IV,NULL,31673599061,NULL,31673599061,NULL,31673599061,Subscriber,NULL,95133640-7000776217-613703@iqie45-w7w45w5.kirferh.gsq,NULL,Subscriber,end1,NULL,NULL,NULL,Q20,"g711ulaw,unknown",g711ulaw,"g711ulaw, unknown",g711ulaw,NULL,96076,95596,NULL,NULL,536.03.680.90,"30802, 0",536.03.680.98,34040,NULL,NULL,Q20_sim,N,NULL,NULL,NULL,NULL,NULL,NULL,NULL,4.405381203,NULL,NULL,NULL,msx_sim_1_2021_04_13_12.CDT,vyhmixps,NULL,NULL,0,NULL,NULL,NULL,2021-04-13T08:29:24,NULL,NULL,4.405381203,NULL,NULL,16,NormalCallClearing,NULL,NULL,0,NULL,NULL,NULL,NULL,13,2,8,4,NULL,2021,0,"AD,VD","AD,VD",msx_sim_1,vyhmixps,vyhmixps,NULL,31673599061,NULL,NULL,NULL,NULL,NULL,16,NormalCallClearing,NULL,NULL,NULL,0,0,0,0,602,599,NULL,625,1250,sip,No,sip,NULL,31673599061,93,93,NULL,NULL,NULL,NULL,NULL,NULL,NULL,NULL,NULL,Proxy Authentication Required,NULL,NULL,NULL,"529.14.536.98, 529.14.536.98","55586, 55590","532.51.28.98, 532.51.28.98","56364, 56366",NULL,2021-04-13 12:29:00,2021-04-13T08:29:21,1,EST,NULL,2021-04-13 08:29:00,1618302573,America/New_York,13,2,12,4,2021,True,NULL,2,NULL,NULL,15520810,NULL,NULL,NULL,NULL,Packet Loss lower than 1%
2021-08-26 00:03:00,vhsyBeqm,54.590.05.60,NULL,NULL,WIWQ5/19,priv_domain2,WIWQ5,19,000:03:22,202.2669983,202,00:29:33.8,NULL,NULL,NULL,ack-rx#na,0,NULL,000:00:10,1196,destination,536.502.4.57,NULL,hCreqmg-7091379488.586768.483/0,5060,pub2_access,hCreqmg-7091379488.586768.483,0,IV,NULL,4516368860,NULL,4516368860,NULL,4516368860,Subscriber,NULL,38fi99h4-g4e2444h-57g8-72eg22-83281j82-72eg22@kirferh.gsq,NULL,Subscriber,end1,NULL,NULL,NULL,Q20,unknown,unknown,g711alaw,g711alaw,NULL,NULL,1688320,NULL,NULL,08.38.549.594,25636,536.03.680.98,42778,NULL,NULL,Q20_sim,N,NULL,NULL,NULL,NULL,NULL,NULL,NULL,NULL,NULL,NULL,NULL,msx_sim_1_2021_04_13_12.CDT,vhsyBeqm,NULL,NULL,0,NULL,NULL,NULL,2021-04-13T08:29:24,NULL,NULL,3.905749083,NULL,NULL,16,NormalCallClearing,NULL,NULL,0,NULL,NULL,NULL,NULL,13,2,8,4,NULL,2021,0,AD,AD,msx_sim_1,vhsyBeqm,vhsyBeqm,NULL,4516368860,NULL,NULL,NULL,NULL,NULL,16,NormalCallClearing,NULL,NULL,NULL,NULL,250,NULL,254,NULL,10302,NULL,NULL,2250,sip,No,sip,NULL,4516368860,NULL,77,NULL,NULL,NULL,NULL,NULL,NULL,NULL,NULL,NULL,Proxy Authentication Required,NULL,NULL,NULL,536.502.4.57,23014,532.51.28.98,51436,NULL,2021-04-13 12:26:00,2021-04-13T08:26:11,1,EST,NULL,2021-04-13 08:29:00,1618302573,America/New_York,13,2,12,4,2021,True,NULL,1,NULL,NULL,14257110,NULL,NULL,NULL,NULL,Packet Loss greater than 1%
